;empty_slots;extra;free_bikes;id;latitude;longitude;name;timestamp
0;26;{'uid': '017'};1;9d57ab84bdcde15d64a1664c01ea8fb9;60.173099;24.949636;Varsapuistikko;2018-09-30T09:59:32.348000Z
1;2;{'uid': '039'};29;df83a13673a5c3139cab51286bc13003;60.182578;24.926764;Ooppera;2018-09-30T09:59:32.382000Z
2;12;{'uid': '128'};1;688c4566b4403571801f4268df799fd4;60.1920576;24.9642238;Päijänteentie;2018-09-30T09:59:32.332000Z
3;1;{'uid': '715'};13;37c5312fc86cf5a6286be9eacc3ac8c7;60.216222;24.821932;Komentajankatu;2018-09-30T09:59:32.385000Z
4;9;{'uid': '069'};5;cb6a7f2323230164c254c5c909d80ecb;60.1656962;24.9314323;Kalevankatu;2018-09-30T09:59:32.486000Z
5;12;{'uid': '587'};0;d8d1594239323944e2a30ef2493d8d85;60.162477;24.767831;Hauenkallio;2018-09-30T09:59:32.747000Z
6;6;{'uid': '026'};26;cfa241b3c8fe3a3384d61ee20ff315dc;60.168644;24.930435;Kampin metroasema;2018-09-30T09:59:32.363000Z
7;1;{'uid': '146'};16;0b47370a4249132f08f9226065237576;60.2172043;24.9544112;Pohjolanaukio;2018-09-30T09:59:32.362000Z
8;2;{'uid': '084'};10;241bdd9f5c08b30dbb6446469bfabd8d;60.19163756;24.90078593;Mäntytie;2018-09-30T09:59:32.666000Z
9;27;{'uid': '521'};2;e02233eb497bb93e13bc029eeb6fb547;60.177588;24.803942;Kulttuuriaukio;2018-09-30T09:59:32.681000Z
10;10;{'uid': '101'};18;6ee3e23da86fc75c6f11a707fb805747;60.2059946;24.8798291;Munkkivuoren ostoskeskus;2018-09-30T09:59:32.744000Z
11;13;{'uid': '004'};1;e7d6364475a29671947f060bdedaef92;60.160944;24.941859;Viiskulma;2018-09-30T09:59:32.326000Z
12;17;{'uid': '006'};6;ca527b35a8907cb96e8fb3275c43258b;60.162287;24.929542;Hietalahdentori;2018-09-30T09:59:32.329000Z
13;6;{'uid': '013'};9;033080b28b100f742e361f30e553085e;60.167891;24.975561;Merisotilaantori;2018-09-30T09:59:32.341000Z
14;8;{'uid': '015'};4;6fc5132955e07b845f6a2e62470292bd;60.171025;24.955571;Ritarikatu;2018-09-30T09:59:32.344000Z
15;6;{'uid': '016'};14;5d07a8fc3ba2ba51625e9993e61a491b;60.174175;24.96148;Liisanpuistikko;2018-09-30T09:59:32.346000Z
16;5;{'uid': '021'};48;f65b68cc5f19045a8b07f59f47b5b010;60.17291;24.93913;Töölönlahdenkatu;2018-09-30T09:59:32.354000Z
17;23;{'uid': '023'};7;584e77525465ab5217822e6f6a9f7c39;60.171413;24.937402;Kiasma;2018-09-30T09:59:32.358000Z
18;0;{'uid': '032'};0;37edaaaed3d70f61d09ada463150023e;60.171346;24.931874;Eläinmuseo;2018-09-30T09:59:32.376000Z
19;13;{'uid': '033'};3;087aed9505e2f06b74fbd6b96486c4d8;60.171155;24.92506;Kauppakorkeakoulu;2018-09-30T09:59:32.377000Z
20;13;{'uid': '034'};2;8adcd117e712e01bdc3d24ed2ee7f9d0;60.173944;24.932879;Kansallismuseo;2018-09-30T09:59:32.378000Z
21;4;{'uid': '036'};23;2c1c0df24c5fd9b98999de2d6ef0f2a6;60.176076;24.922503;Apollonkatu;2018-09-30T09:59:32.380000Z
22;2;{'uid': '037'};27;b91b0dc7dfe785f59ecdbbe187ea9fe2;60.1774947;24.928409278;Töölönkatu;2018-09-30T09:59:32.380000Z
23;6;{'uid': '038'};13;10388240daa03dce0726db54a627d4f4;60.179141;24.924981;Töölöntori;2018-09-30T09:59:32.381000Z
24;17;{'uid': '040'};12;38319ecf8cadc7b3c9a0c009bad1d142;60.178102;24.952391;Hakaniemen metroasema;2018-09-30T09:59:32.388000Z
25;7;{'uid': '041'};40;5d71dc7c702527c1cafcd88674750fe5;60.180808;24.949272;Ympyrätalo;2018-09-30T09:59:32.390000Z
26;18;{'uid': '043'};2;d03a5f077dd43c3979cac9bf1cff04f7;60.184283;24.952703;Karhupuisto;2018-09-30T09:59:32.394000Z
27;22;{'uid': '044'};2;9a129e60f204059e7033224e79ba4816;60.187704;24.960505;Sörnäisten metroasema;2018-09-30T09:59:32.395000Z
28;11;{'uid': '052'};7;f36e109143c3a5667c72fa3e53f3743f;60.1540763;24.8793159;Heikkilänaukio;2018-09-30T09:59:32.431000Z
29;9;{'uid': '053'};3;8d3c28d2071974a4568ce0018613acc8;60.156817;24.8850653;Heikkiläntie;2018-09-30T09:59:32.432000Z
30;0;{'uid': '056'};13;61b7df21d32a35c1373ea63c4464a23d;60.1654485;24.8601992;Luoteisväylä;2018-09-30T09:59:32.439000Z
31;10;{'uid': '593'};3;b5e6c836ffc8fb5e1e578a512ef301b8;60.159601;24.782536;Toppelundintie;2018-09-30T09:59:32.307000Z
32;14;{'uid': '110'};3;79e6a073c80d2667b629db194629b403;60.198898;24.924867;Maistraatintori;2018-09-30T09:59:32.308000Z
33;38;{'uid': '113'};2;74689515429fa60a03634dba53ae4ba6;60.199715;24.935198;Veturitori;2018-09-30T09:59:32.312000Z
34;15;{'uid': '115'};1;ad22db44a62ee3fb4fa7fbf881b14115;60.1942095;24.941578;Venttiilikuja;2018-09-30T09:59:32.315000Z
35;14;{'uid': '121'};3;4f9d39370f89c01556e6198029d28dbc;60.1864633;24.9678718;Vilhonvuorenkatu;2018-09-30T09:59:32.320000Z
36;16;{'uid': '122'};0;d6e1c2b7cab65e4b0cf39be6af30cc6a;60.1837182;24.9621936;Lintulahdenkatu;2018-09-30T09:59:32.322000Z
37;15;{'uid': '124'};3;18757df75f572ff24ba88b2ead97352c;60.18265182;24.98179261;Isoisänsilta;2018-09-30T09:59:32.325000Z
38;0;{'uid': '125'};41;c266d627b510c4ab43632d3bbbccb32c;60.1847821;24.9786428;Arielinkatu;2018-09-30T09:59:32.327000Z
39;0;{'uid': '126'};39;1099ea376c74cd14567299d4477044a0;60.188399;24.975852;Kalasataman metroasema;2018-09-30T09:59:32.329000Z
40;8;{'uid': '127'};12;248c9f45e435fe0af09dfd5402ec2be3;60.1896994;24.9711926;Teurastamo;2018-09-30T09:59:32.330000Z
41;24;{'uid': '130'};0;84f7d5429014d4a44e4b8e0c96274158;60.193486;24.9487524;Teollisuuskatu;2018-09-30T09:59:32.334000Z
42;23;{'uid': '131'};1;73502a450f73707bddffc092ee502c67;60.1962627;24.9476186;Elimäenkatu;2018-09-30T09:59:32.336000Z
43;22;{'uid': '133'};0;d278884008c1f89b6785192d7bdb1713;60.1974886;24.9614385;Paavalinpuisto;2018-09-30T09:59:32.340000Z
44;3;{'uid': '134'};21;f260a25d7217bc4ca4946c156f6b2615;60.1985314;24.9676708;Haukilahdenkatu;2018-09-30T09:59:32.341000Z
45;9;{'uid': '136'};2;98e39df220af06356d756b7d1e1327d0;60.2032721;24.9513636;Sofianlehdonkatu;2018-09-30T09:59:32.345000Z
46;10;{'uid': '148'};6;54c3fd84fc4a00667e64fd83ffdbae27;60.2184427;24.9664619;Juhana Herttuan tie;2018-09-30T09:59:32.365000Z
47;15;{'uid': '705'};3;6a7eb6bf55515e68f6a5748aaa7c9eb4;60.203892;24.80493;Laajalahden keskus;2018-09-30T09:59:32.370000Z
48;4;{'uid': '150'};25;c0af3fa79ff889dcab400b84b2572e1f;60.1766793;24.9338701;Töölönlahden puisto;2018-09-30T09:59:32.373000Z
49;10;{'uid': '711'};6;d04c36a2c1b6c50b4a54041290bdd39a;60.215751;24.826368;Kirjurinkuja;2018-09-30T09:59:32.383000Z
50;9;{'uid': '717'};3;79d1f436a9d8bd8faab8237f81de6681;60.21106;24.807955;Leiritori;2018-09-30T09:59:32.386000Z
51;12;{'uid': '161'};28;e8d2bca5c7b44a03c780986d6a87fe76;60.16723083;24.94746582;Eteläesplanadi;2018-09-30T09:59:32.389000Z
52;28;{'uid': '162'};0;6dbf76d493747da283be9703d7ac9821;60.16957343;24.9265905;Leppäsuonaukio;2018-09-30T09:59:32.391000Z
53;8;{'uid': '721'};6;36b3770182c483d917ef70a8c11ab4a8;60.214193;24.805613;Säterinrinne;2018-09-30T09:59:32.401000Z
54;3;{'uid': '603'};26;0e83d953135506f47d48a184a406cb50;60.151041;24.754196;Matinlahdenranta;2018-09-30T09:59:32.407000Z
55;11;{'uid': '727'};21;3e7f9869aff046550e84f369d9dfae05;60.217311;24.812419;Ratsutori;2018-09-30T09:59:32.410000Z
56;6;{'uid': '609'};4;00b4a9e6d6ea1ef4ae4abacf190a3e8f;60.152343;24.741234;Sepetlahdentie;2018-09-30T09:59:32.422000Z
57;5;{'uid': '611'};15;67c4d2c059b8e966e1d11cae19bba65d;60.156258;24.752489;Matinkartanontie;2018-09-30T09:59:32.448000Z
58;3;{'uid': '617'};8;000c307acc41df3a1343bdf8a5d8caa7;60.153737;24.729112;Tiistinkallio;2018-09-30T09:59:32.461000Z
59;12;{'uid': '065'};21;13908ca465c319b5e810faf120a68634;60.1546505;24.9314755;Hylkeenpyytäjänkatu;2018-09-30T09:59:32.478000Z
60;15;{'uid': '067'};1;00bc82934e430d866a8008615d19e515;60.15997725117;24.93383428634;Perämiehenkatu;2018-09-30T09:59:32.482000Z
61;15;{'uid': '741'};6;781415a9f05cfe05793a185fdba1d89a;60.222154;24.804898;Gransinmäki;2018-09-30T09:59:32.487000Z
62;7;{'uid': '621'};8;010ddab4b4156d8b5afe719be16542e9;60.161138;24.756272;Hauenkalliontie;2018-09-30T09:59:32.492000Z
63;10;{'uid': '625'};27;1df7577999d36b834c0ec15e0e2c7c10;60.159866;24.740675;Suomenlahdentie;2018-09-30T09:59:32.550000Z
64;12;{'uid': '505'};4;1a6fdcb93a8be1dafa03bb5b11eb5f5c;60.168266;24.805758;Westendinasema;2018-09-30T09:59:32.560000Z
65;33;{'uid': '627'};1;d64b9cd517aacae8a7c911af6a4e3237;60.162403;24.738416;Piispansilta;2018-09-30T09:59:32.564000Z
66;5;{'uid': '507'};11;fda8c7db6b48aed63f7b3440ab5e4f99;60.168143;24.796136;Golfpolku;2018-09-30T09:59:32.570000Z
67;24;{'uid': '749'};0;fff35c4eaa39df0e4dd198d9c4b344bd;60.228463;24.813871;Vallikatu;2018-09-30T09:59:32.573000Z
68;15;{'uid': '629'};1;09bc7c563fd2de9be3a60f448057e661;60.165603;24.732688;Piispanportti;2018-09-30T09:59:32.574000Z
69;4;{'uid': '075'};35;18ec8a3291783f4d54976e6fcd5a859b;60.1838677;24.9198371;Korjaamo;2018-09-30T09:59:32.587000Z
70;1;{'uid': '076'};35;ab0741899ad5f591a56875982727bfe8;60.1845055;24.9249741;Olympiastadion;2018-09-30T09:59:32.588000Z
71;11;{'uid': '077'};0;b231052e47a1f5684f1a8b44e31246b2;60.185184;24.91423;Nordenskiöldinaukio;2018-09-30T09:59:32.589000Z
72;13;{'uid': '079'};2;b959f9946b9807f91152628cad187349;60.1892172;24.9292286;Uimastadion;2018-09-30T09:59:32.593000Z
73;17;{'uid': '751'};3;aa67db2e56f25d7e4670056b6d89e74c;60.227564;24.821774;Vallipolku;2018-09-30T09:59:32.595000Z
74;4;{'uid': '631'};8;a880984446873fa3685baad1dfb174b6;60.162842;24.721367;Friisilänaukio;2018-09-30T09:59:32.598000Z
75;7;{'uid': '511'};12;18ac2d19a54bdacd970ccf6996dd154e;60.173424;24.810688;Sateentie;2018-09-30T09:59:32.612000Z
76;20;{'uid': '753'};5;c85bc4ed8648f3ec591a42a903080b58;60.234401;24.813954;Linnuntie;2018-09-30T09:59:32.613000Z
77;24;{'uid': '513'};0;462525ce3d71cd168f9a404ff7620caf;60.173567;24.79139;Hakalehto;2018-09-30T09:59:32.619000Z
78;14;{'uid': '755'};2;2f8fc9aedd7f78f1276caf8e20c80c1d;60.230453;24.824561;Kutsuntatie;2018-09-30T09:59:32.630000Z
79;21;{'uid': '635'};3;1d8b2f8bd7fbfe89c618bf2a7a5f8b05;60.172673;24.726025;Kuunkatu;2018-09-30T09:59:32.631000Z
80;16;{'uid': '515'};0;d9a1dce1679a5a5fbc153cdc42f8d843;60.175769;24.792559;Oravannahkatori;2018-09-30T09:59:32.633000Z
81;14;{'uid': '639'};4;2d0b2978d8a5e31f376e8afc24c79a7a;60.174914;24.738122;Itäportti;2018-09-30T09:59:32.645000Z
82;20;{'uid': '519'};2;0960323c49bf1cf9dbc7a699a858ffe7;60.176168;24.805825;Tapionaukio;2018-09-30T09:59:32.648000Z
83;0;{'uid': '080'};0;7f50d65a850ae788b68347c9e77441d5;60.1894025;24.9205978;Jäähalli;2018-09-30T09:59:32.651000Z
84;15;{'uid': '085'};1;abc2f81e5410f0a036bf9b58d8941814;60.1934696;24.905889;Jalavatie;2018-09-30T09:59:32.667000Z
85;20;{'uid': '087'};0;d62d22d4d4915a30713cd15020b182d9;60.18827522;24.95597593;Kustaankatu;2018-09-30T09:59:32.670000Z
86;22;{'uid': '761'};4;3b8da65e32e72c67c0e82129ed509433;60.220412;24.83938;Mäkkylän asema;2018-09-30T09:59:32.675000Z
87;12;{'uid': '523'};7;e1a82f94281cffb1837ef53bb767af25;60.17875;24.797984;Ahertajantie;2018-09-30T09:59:32.683000Z
88;9;{'uid': '527'};9;342d6a4bf66186b816c45ab43b0f4c10;60.178651;24.817396;Otsolahti;2018-09-30T09:59:32.691000Z
89;5;{'uid': '649'};8;082ad4fb04c6c00dc29176339269c649;60.17471;24.752442;Lystimäensilta;2018-09-30T09:59:32.695000Z
90;15;{'uid': '091'};7;1e9ee9fdafb05635eb445e3fa8c7b505;60.188399;24.8847362;Seurasaari;2018-09-30T09:59:32.698000Z
91;2;{'uid': '092'};6;cb28170c6d990828d396cb62d032eada;60.1926305828;24.87922144235;Saunalahdentie;2018-09-30T09:59:32.699000Z
92;0;{'uid': '093'};20;98d7d11533d2865b25badf276f52329c;60.1948358;24.8713963;Torpanranta;2018-09-30T09:59:32.700000Z
93;7;{'uid': '099'};5;b4bda3b32ca053af8b3f70f033b95304;60.2071193;24.8559544;Muusantori;2018-09-30T09:59:32.710000Z
94;4;{'uid': '539'};20;1c263d5d06060c5b24fe5065ef39cef1;60.184987;24.820099;Aalto-yliopisto (M), Tietotie;2018-09-30T09:59:32.715000Z
95;27;{'uid': '541'};15;ea1aaf81b805eb14963b46e917309e6d;60.184312;24.826671;Aalto-yliopisto (M), Korkeakouluaukio;2018-09-30T09:59:32.716000Z
96;0;{'uid': '543'};42;fc9fe59af9db86e2f12552b8960754af;60.18483;24.837133;Otaranta;2018-09-30T09:59:32.717000Z
97;6;{'uid': '545'};8;5be5cb44f750be54a4ab5c9419cb99e1;60.188499;24.829985;Sähkömies;2018-09-30T09:59:32.719000Z
98;18;{'uid': '551'};2;5e043ee52a1cad07c0bf36c18d4633b0;60.189143;24.807083;Tietäjä;2018-09-30T09:59:32.725000Z
99;10;{'uid': '557'};6;9fbf6e11577418f92e9815af6b0478d3;60.187281;24.796952;Louhentori;2018-09-30T09:59:32.727000Z
100;12;{'uid': '559'};11;59e87c496edeed45e0e8acb6595215cb;60.18288;24.794014;Pohjankulma;2018-09-30T09:59:32.728000Z
101;8;{'uid': '561'};12;2dd85572489cc4d9e13675b5a5ebc6f0;60.182976;24.78576;Koivu-Mankkaa;2018-09-30T09:59:32.729000Z
102;3;{'uid': '563'};23;4b1cbb152d7310ee4ce7a0dbe7a5f885;60.188706;24.780478;Mankkaanlaaksontie;2018-09-30T09:59:32.730000Z
103;7;{'uid': '565'};13;5a2cc6ba362d39831846c9557877636d;60.194599;24.769021;Mankkaanaukio;2018-09-30T09:59:32.731000Z
104;16;{'uid': '583'};0;33acc637a3554c65b666278647abca6b;60.166481;24.772708;Haukilahdenkatu;2018-09-30T09:59:32.740000Z
105;1;{'uid': '100'};11;395b3bea88b94ea14277341e0038b7e7;60.20949373296;24.868209662;Teljäntie;2018-09-30T09:59:32.743000Z
106;14;{'uid': '103'};0;0c46b7b4b12b2b285c83817331c19b8e;60.208925;24.8895209;Vihdintie;2018-09-30T09:59:32.746000Z
107;2;{'uid': '589'};15;76c712df15e20f0f3b1d63f39c46f539;60.158048;24.769864;Haukilahdenranta;2018-09-30T09:59:32.751000Z
108;9;{'uid': '108'};4;c6eb367cc022da48ca1487a4e7733ec9;60.204447;24.917931;Radiokatu;2018-09-30T09:59:32.755000Z
109;18;{'uid': '109'};2;1ae9a58b957f24307b033b0dca85a1d4;60.202336;24.922654;Hertanmäenkatu;2018-09-30T09:59:32.756000Z
110;2;{'uid': '001'};40;5e93e63aec510843146b0b691a747c8e;60.155411;24.950391;Kaivopuisto;2018-09-30T09:59:32.321000Z
111;7;{'uid': '002'};6;cf95a914bb5d1f9e7bb71efc14800243;60.159715;24.955212;Laivasillankatu;2018-09-30T09:59:32.322000Z
112;12;{'uid': '003'};4;e8027c6aea5dcf7f20b844cb2ccac358;60.158172;24.944808;Kapteeninpuistikko;2018-09-30T09:59:32.325000Z
113;26;{'uid': '010'};1;2f666e8b73ec941b12a5c48dafc7e068;60.165018;24.949497;Kasarmitori;2018-09-30T09:59:32.335000Z
114;0;{'uid': '011'};38;90e5d4e341d40be9f561a750886b55ac;60.167562;24.951004;Unioninkatu;2018-09-30T09:59:32.337000Z
115;0;{'uid': '012'};54;69667c659e679f2361db8ee429d5ec19;60.168488;24.958478;Kanavaranta;2018-09-30T09:59:32.339000Z
116;27;{'uid': '005'};5;118ebe0843074bb908d57983d57f3739;60.157935;24.936083;Sepänkatu;2018-09-30T09:59:32.328000Z
117;13;{'uid': '007'};1;7817d1776d063ee0d2411fb555f7b937;60.163084;24.945894;Designmuseo;2018-09-30T09:59:32.331000Z
118;14;{'uid': '008'};4;8cb372926bf2dee960672f51daa19194;60.165311;24.939186;Vanha kirkkopuisto;2018-09-30T09:59:32.332000Z
119;9;{'uid': '014'};13;e5b5f6a2608231021917b7cda1d9ca29;60.169106;24.952527;Senaatintori;2018-09-30T09:59:32.342000Z
120;16;{'uid': '018'};6;e99258e4079f02993ec575c97c686943;60.169873;24.948153;Porthania;2018-09-30T09:59:32.349000Z
121;2;{'uid': '019'};29;f81b15ece01d35aa2697db52df9c7ba8;60.17076;24.942522;Rautatientori / itä;2018-09-30T09:59:32.351000Z
122;0;{'uid': '020'};40;2fcdb6228d6d3549873464dc8793d683;60.172958;24.94292;Kaisaniemenpuisto;2018-09-30T09:59:32.353000Z
123;2;{'uid': '022'};19;b16b52e6887ac68b440b6dee587d1a15;60.1706;24.939671;Rautatientori / länsi;2018-09-30T09:59:32.356000Z
124;3;{'uid': '024'};17;1fa8b979d04d33c09c629de53e9bcac5;60.169045;24.939429;Mannerheimintie;2018-09-30T09:59:32.359000Z
125;18;{'uid': '025'};22;f641387c0d3fbf200a901340d632b949;60.170015;24.935259;Narinkka;2018-09-30T09:59:32.361000Z
126;11;{'uid': '027'};1;dc9a26b43e1d78a226bdc0b12c0c7d78;60.16739;24.935913;Eerikinkatu;2018-09-30T09:59:32.364000Z
127;16;{'uid': '028'};0;54ecd4e4ef4da2ae30bd87b782e0ea8f;60.165754;24.92705;Lastenlehto;2018-09-30T09:59:32.366000Z
128;14;{'uid': '029'};5;881dd76f5c2498c1081cad13e18be927;60.164159;24.922583;Baana;2018-09-30T09:59:32.368000Z
129;3;{'uid': '030'};42;eb73ab31cfdb1c60199e3bbaff82b1db;60.163535;24.914765;Itämerentori;2018-09-30T09:59:32.374000Z
130;16;{'uid': '031'};0;99d08d7a43ca40292e4ac763fabf2fa8;60.168335;24.92277;Marian Sairaala;2018-09-30T09:59:32.374000Z
131;16;{'uid': '035'};0;b877623a3318113942411f683025cf2a;60.174063715;24.92822758053;Cygnauksenkatu;2018-09-30T09:59:32.379000Z
132;16;{'uid': '042'};3;21588724e5a9b1c5bd70af9eabc00fe5;60.181907;24.95688;Haapaniemenkatu;2018-09-30T09:59:32.392000Z
133;23;{'uid': '045'};0;73722e0b258b73cf26140c86b7599254;60.186742;24.950833;Brahen kenttä;2018-09-30T09:59:32.396000Z
134;8;{'uid': '046'};1;d56195217181091bdf8fd251ec7548dd;60.186281;24.941812;Diakoniapuisto;2018-09-30T09:59:32.397000Z
135;2;{'uid': '047'};39;9ec34764eca72eaaf5b36df526be6826;60.16673071893;24.95350466638;Vanha Kauppahalli;2018-09-30T09:59:32.398000Z
136;3;{'uid': '048'};16;8fdacf2df8f36bf8d3cf7f3129ae8704;60.1648;24.968021;Mastokatu;2018-09-30T09:59:32.399000Z
137;16;{'uid': '049'};0;bfa5eb262d60270041d3967340fe8c2d;60.16345894291;24.94177084206;Annankatu;2018-09-30T09:59:32.400000Z
138;10;{'uid': '050'};1;c1d0a54a993645c5727c5ceeee027d31;60.1498127;24.8861094;Melkonkuja;2018-09-30T09:59:32.426000Z
139;10;{'uid': '051'};2;b45fb7c532fef6f4e281ac4fefdaede9;60.15066;24.8812502;Itälahdenkatu;2018-09-30T09:59:32.430000Z
140;13;{'uid': '054'};14;50cb68a0f279cb9cfccaeb7b21457769;60.1583842;24.8766658;Gyldenintie;2018-09-30T09:59:32.434000Z
141;8;{'uid': '055'};8;1ccb92ab463da9f6222ca861c09f5f79;60.16169596138;24.85986626853;Puistokaari;2018-09-30T09:59:32.436000Z
142;19;{'uid': '057'};7;acd9f4d55b49c8b2d98a03ab6f4f0855;60.1603306;24.8815441;Lauttasaaren ostoskeskus;2018-09-30T09:59:32.441000Z
143;3;{'uid': '058'};29;8135dfaeae2bf577ebdea42e52b8910d;60.1615512;24.8926386;Lauttasaarensilta;2018-09-30T09:59:32.442000Z
144;5;{'uid': '591'};19;39492310537db662149233c2c8194d58;60.154941;24.773993;Mellstenintie;2018-09-30T09:59:32.305000Z
145;16;{'uid': '111'};4;3edda9b7dea10d5ecc603ea2fbf82073;60.1975724;24.9267808;Esterinportti;2018-09-30T09:59:32.309000Z
146;9;{'uid': '595'};7;469aeb95d13b4a39423fc2adae02e6dd;60.158194;24.791754;Westendintie;2018-09-30T09:59:32.310000Z
147;18;{'uid': '112'};4;4d0d7dfbf120055a9638e81369e90474;60.2014382;24.9332721;Rautatieläisenkatu;2018-09-30T09:59:32.310000Z
148;0;{'uid': '596'};28;64400dfda18d5acd9e54ad0092f2d0e1;60.1624471;24.7848628;Toppelundinportti;2018-09-30T09:59:32.311000Z
149;7;{'uid': '597'};5;c09f43a927fee344252d99ae4906bf51;60.163352;24.790387;Linnakepolku;2018-09-30T09:59:32.313000Z
150;17;{'uid': '114'};3;402bc3d971c6acd66dc58601fc2442cf;60.197016;24.935891;Ratapihantie;2018-09-30T09:59:32.314000Z
151;27;{'uid': '116'};5;0fd93d7fd95050ed1a84744a555a9120;60.1911411;24.9401593;Linnanmäki;2018-09-30T09:59:32.316000Z
152;9;{'uid': '117'};3;82efe13c9fdd8418a541315f60755563;60.1896706;24.9481024;Brahen puistikko;2018-09-30T09:59:32.316000Z
153;22;{'uid': '118'};1;b19f98e13950232a03ac0253fda13373;60.1895417;24.9521601;Fleminginkatu;2018-09-30T09:59:32.317000Z
154;12;{'uid': '119'};5;61d758ff14f7359e05c12bc59b73a705;60.1907096;24.9568729;Gebhardinaukio;2018-09-30T09:59:32.318000Z
155;28;{'uid': '120'};0;9db5162539e3be369da826838065e176;60.1896352;24.9635596;Mäkelänkatu;2018-09-30T09:59:32.319000Z
156;8;{'uid': '123'};19;106a1787c556832314460b739ff97c03;60.179765;24.9554618;Näkinsilta;2018-09-30T09:59:32.324000Z
157;16;{'uid': '129'};1;62edff31efd28b8c423ba2c115f8808b;60.1942342;24.9579931;Pernajantie;2018-09-30T09:59:32.333000Z
158;11;{'uid': '132'};0;63f7f63929ba13e4be256f8fa06ff444;60.19588479865;24.95453389981;Hollolantie;2018-09-30T09:59:32.338000Z
159;9;{'uid': '135'};4;d92c230dcbd433738707ee4b1d7f150b;60.2010614;24.9440506;Velodrominrinne;2018-09-30T09:59:32.343000Z
160;13;{'uid': '137'};13;f3c98bb707d9ca0381aa8b29a0e23007;60.2027912;24.9666128;Arabian kauppakeskus;2018-09-30T09:59:32.347000Z
161;7;{'uid': '138'};7;6367d946b1d63268c7f1119d65a706f2;60.2064085;24.9765672;Arabiankatu;2018-09-30T09:59:32.348000Z
162;9;{'uid': '139'};8;79f028565adb45119ae7ca4d0a9c157b;60.2100255;24.9765801;Kaironkatu;2018-09-30T09:59:32.350000Z
163;5;{'uid': '140'};9;8e9b0e43014cdad95d7055c6573b0249;60.2137007;24.9797283;Verkatehtaanpuisto;2018-09-30T09:59:32.352000Z
164;9;{'uid': '141'};7;ae76a2c579c72d213727950b6ba7e1f1;60.2078582;24.9676383;Intiankatu;2018-09-30T09:59:32.353000Z
165;10;{'uid': '142'};4;6dd67e79ee1426fe22478b3e664b7319;60.208749;24.9465139;Koskelantie;2018-09-30T09:59:32.355000Z
166;7;{'uid': '143'};6;e098d33ee7f9aa798b3795844607969b;60.1570856;24.86930605;Kuikkarinne;2018-09-30T09:59:32.357000Z
167;10;{'uid': '144'};4;870960bc2f0a4dd4741a0db9d31ee813;60.2139043;24.9588108;Käpyläntie;2018-09-30T09:59:32.358000Z
168;11;{'uid': '145'};1;70f4fcc090581b1a8aec61bdb1cfd3ee;60.213421;24.9437964;Pohjolankatu;2018-09-30T09:59:32.360000Z
169;12;{'uid': '147'};6;579d0d078aaa4e979b4da2794fae2f6c;60.220227;24.948694;Käpylän asema;2018-09-30T09:59:32.363000Z
170;23;{'uid': '149'};1;d028263f19948ef504fea15209f07e3e;60.183164;24.9441949;Toinen linja;2018-09-30T09:59:32.367000Z
171;6;{'uid': '701'};4;ada318010166a5bcaa81431d69b17f11;60.206142;24.840699;Gallen-Kallelan tie;2018-09-30T09:59:32.369000Z
172;23;{'uid': '707'};1;0fa91a4203d8d9024b08060d1a32849d;60.210735;24.824954;Majurinkulma;2018-09-30T09:59:32.371000Z
173;19;{'uid': '709'};1;24756db9506dc268800b4100ff678804;60.212508;24.819549;Yhdyskunnankuja;2018-09-30T09:59:32.372000Z
174;15;{'uid': '713'};14;12a1c942b8d6f311c0251650260e7407;60.216067;24.819396;Upseerinkatu;2018-09-30T09:59:32.384000Z
175;29;{'uid': '719'};3;459d8bf68a4ffde4ec445253d891052d;60.213722;24.810682;Säteri;2018-09-30T09:59:32.387000Z
176;3;{'uid': '163'};15;5eaabac788a8f77c3a15f1757102c4e6;60.18147258;24.85053677;Lehtisaarentie;2018-09-30T09:59:32.393000Z
177;8;{'uid': '601'};10;bd8b5ebf8c56970a9d8b5ea125400a1e;60.147974;24.754344;Nokkala;2018-09-30T09:59:32.402000Z
178;6;{'uid': '723'};4;c5df7ee84d5bd5441c897bf9dc7485df;60.214666;24.800486;Säterinniitty;2018-09-30T09:59:32.403000Z
179;13;{'uid': '725'};7;bf4019de1340aefe234bd19c4bc2f038;60.217261;24.806279;Rummunlyöjänkatu;2018-09-30T09:59:32.409000Z
180;3;{'uid': '607'};11;2579a72eca12a729579d432d9cefb684;60.147921;24.741546;Nuottaniementie;2018-09-30T09:59:32.411000Z
181;4;{'uid': '729'};22;77a75a40dbe1fd755f5fba6656bcf331;60.218869;24.813885;Leppävaaranaukio;2018-09-30T09:59:32.412000Z
182;6;{'uid': '059'};10;023a0e7946dd20bb33a082c00b42ae4d;60.16478138043;24.90096080349;Salmisaarenranta;2018-09-30T09:59:32.444000Z
183;1;{'uid': '731'};25;d049b242921378033d10f93ad2f67ca5;60.220254;24.813437;Leppävaarankäytävä;2018-09-30T09:59:32.446000Z
184;2;{'uid': '733'};23;171e00b94d6fdbb09c828f5c1cf7d693;60.221019;24.813109;Läkkitori;2018-09-30T09:59:32.450000Z
185;10;{'uid': '613'};4;ab60916dc795426038112492c612687c;60.155689;24.744978;Matinkyläntie;2018-09-30T09:59:32.453000Z
186;20;{'uid': '735'};0;a2147647952a1a746c949e0331854ed4;60.221719;24.818215;Mestarinkatu;2018-09-30T09:59:32.455000Z
187;20;{'uid': '615'};3;42ed6efdd64865cfea337d45ee8c5e22;60.156755;24.737664;Tiistiläntie;2018-09-30T09:59:32.457000Z
188;15;{'uid': '737'};3;b4ff21d586dce493dc6009306692b381;60.223769;24.812271;Muurarinkuja;2018-09-30T09:59:32.459000Z
189;11;{'uid': '739'};5;56fa5e088a96400f04a8958c60e81370;60.223827;24.826396;Postipuun koulu;2018-09-30T09:59:32.462000Z
190;6;{'uid': '619'};4;9d46503bf3d93416bbcb0fff2bec78b8;60.160645;24.724835;Etuniementie;2018-09-30T09:59:32.465000Z
191;20;{'uid': '060'};17;4032a835517e64cadf3a6629d9f3dd2b;60.1632493;24.905336;Porkkalankatu;2018-09-30T09:59:32.466000Z
192;9;{'uid': '061'};8;14c4cd52c417ef49d43810448e1c0313;60.1589276;24.909692;Länsisatamankatu;2018-09-30T09:59:32.469000Z
193;11;{'uid': '062'};9;209b27e71a4adee70b94456585ff49fc;60.1610901;24.9158734;Messitytönkatu;2018-09-30T09:59:32.471000Z
194;15;{'uid': '063'};11;c967a0258bf9a45f5067964e6172fc52;60.1619311;24.9214896;Jätkäsaarenlaituri;2018-09-30T09:59:32.473000Z
195;3;{'uid': '064'};39;59015ea86581ea03ecc8d8c096655e1c;60.1565255;24.9217464;Tyynenmerenkatu;2018-09-30T09:59:32.477000Z
196;18;{'uid': '066'};3;642d4b50171940e4fe703afb7d802128;60.155309;24.9591271;Ehrenströmintie;2018-09-30T09:59:32.481000Z
197;20;{'uid': '068'};2;38ab3e0717c39fec18d491929bc645c2;60.1618359;24.9368179;Albertinkatu;2018-09-30T09:59:32.485000Z
198;6;{'uid': '501'};3;5e7349b94208483034e2fe8d9f04b172;60.16582;24.840319;Hanasaari;2018-09-30T09:59:32.513000Z
199;12;{'uid': '623'};3;c42d0cdde0739b462b23af007630483c;60.161588;24.74663;Nelikkotie;2018-09-30T09:59:32.518000Z
200;26;{'uid': '503'};3;0451ab912cf86c975255c6a991b19752;60.171524;24.827467;Keilalahti;2018-09-30T09:59:32.528000Z
201;21;{'uid': '745'};11;8af5a8831824da79d7c1f0215d921edb;60.224943;24.800971;Leppävaaran urheilupuisto;2018-09-30T09:59:32.530000Z
202;19;{'uid': '747'};0;fcbecc5241f031e7036090b7e0511387;60.226379;24.804735;Leppävaaran uimahalli;2018-09-30T09:59:32.563000Z
203;25;{'uid': '509'};5;f21b7917e7033a7c5e6bcf7a0b6f2d41;60.171551;24.802938;Revontulentie;2018-09-30T09:59:32.575000Z
204;8;{'uid': '070'};6;e0ce4d52ad45f20a47b59a9cab66c435;60.1731473;24.9224112;Sammonpuistikko;2018-09-30T09:59:32.576000Z
205;16;{'uid': '071'};10;0b70d631055f2edc1978581e2b2a20c7;60.17263;24.911406;Hietaniemenkatu;2018-09-30T09:59:32.578000Z
206;0;{'uid': '072'};0;55817fbea62ac6445c6f23e4d64d77fc;60.175604;24.915733;Eteläinen Hesperiankatu;2018-09-30T09:59:32.580000Z
207;2;{'uid': '073'};13;d0d4bd4953d008f6d0c4c2149a968932;60.1792967;24.9132504;Kesäkatu;2018-09-30T09:59:32.581000Z
208;15;{'uid': '074'};1;0d14c42343eadfe93085f7649b7e726e;60.183137;24.911127;Rajasaarentie;2018-09-30T09:59:32.584000Z
209;0;{'uid': '078'};34;d2e450bc32529e8d797be1d29cef3e4a;60.1878352;24.9180102;Messeniuksenkatu;2018-09-30T09:59:32.591000Z
210;9;{'uid': '633'};7;10b34f7afa7ad26d9763ffbc149e985a;60.168971;24.724908;Avaruuskatu;2018-09-30T09:59:32.614000Z
211;11;{'uid': '757'};1;5c6f7f8867ef3f21fb1f8bd15eb0b645;60.235089;24.831397;Painiitty;2018-09-30T09:59:32.634000Z
212;12;{'uid': '637'};0;1d8abf1a2198e76d4b2bdae269689531;60.174524;24.729314;Ruomelantie;2018-09-30T09:59:32.636000Z
213;23;{'uid': '517'};1;9b6f4850d181c3d218fd8f02a7a250e6;60.175358;24.802049;Länsituuli;2018-09-30T09:59:32.643000Z
214;16;{'uid': '081'};2;17190f3b04f3ae527db345e42b24fe52;60.1883091;24.9123717;Stenbäckinkatu;2018-09-30T09:59:32.654000Z
215;16;{'uid': '082'};2;ba6568de82131b64fb86566c1734d178;60.190663;24.914096;Töölöntulli;2018-09-30T09:59:32.658000Z
216;26;{'uid': '083'};2;05e5bb3302a4ea9401838cc1f1c19fb9;60.1902195;24.9083351;Meilahden sairaala;2018-09-30T09:59:32.663000Z
217;22;{'uid': '086'};2;327fe48bf10ae9f64e732d7498b21682;60.1952452;24.9018997;Kuusitie;2018-09-30T09:59:32.668000Z
218;19;{'uid': '088'};1;128f19a421f193a3a95d85b4c21660a6;60.1989402;24.9012997;Kiskontie;2018-09-30T09:59:32.672000Z
219;7;{'uid': '089'};11;03cd48db7343b62ceeb8c62cefd71334;60.1975329;24.899261;Tilkanvierto;2018-09-30T09:59:32.674000Z
220;15;{'uid': '641'};1;8450c43cac731999d69fa16e46c2fa80;60.167216;24.735969;Komeetankatu;2018-09-30T09:59:32.680000Z
221;23;{'uid': '763'};1;106a509bd7e6195cb9bb69ce7ea18bae;60.220551;24.833536;Kalkkipellonmäki;2018-09-30T09:59:32.681000Z
222;20;{'uid': '643'};0;c35d273a02b281cbb502b5ea33c4aa13;60.171548;24.731472;Auringonkatu;2018-09-30T09:59:32.682000Z
223;18;{'uid': '765'};0;cc722ea4b7522c1f0e75de2a2032ac5c;60.222222;24.832958;Adjutantinkatu;2018-09-30T09:59:32.684000Z
224;1;{'uid': '645'};16;c34fcf1234390f12bc04bca689dbf4b5;60.168441;24.743532;Piispankallio;2018-09-30T09:59:32.685000Z
225;0;{'uid': '525'};13;538b5553eecc68cb7cf2ab6020e74d9d;60.178702;24.810974;Mäntyviita;2018-09-30T09:59:32.687000Z
226;10;{'uid': '767'};0;666a340651709f5535b797149d35d403;60.223377;24.820635;Ruutikatu;2018-09-30T09:59:32.688000Z
227;0;{'uid': '647'};14;8eb4e613d675554176133a54a56e8e81;60.172814;24.745666;Lystimäki;2018-09-30T09:59:32.689000Z
228;4;{'uid': '769'};8;02c60bc9652b6fbae7b58f91d4cf3598;60.204582;24.814794;Tiurintie;2018-09-30T09:59:32.691000Z
229;30;{'uid': '529'};9;7e5eb61213481bd337acd2c00bd4fa1a;60.175233;24.82895;Keilaniemi (M);2018-09-30T09:59:32.696000Z
230;15;{'uid': '090'};4;f22262af20d637ff4aa72678fb8f7663;60.1944475;24.8911179;Paciuksenkaari;2018-09-30T09:59:32.697000Z
231;3;{'uid': '094'};22;424f1943272a4c9a8d707aed7b97b6cd;60.1983016;24.8759851;Laajalahden aukio;2018-09-30T09:59:32.702000Z
232;9;{'uid': '095'};9;a8d1b533809b86657099a0e9bbc5eef3;60.1967196;24.8840917;Munkkiniemen aukio;2018-09-30T09:59:32.702000Z
233;13;{'uid': '096'};1;5bbb013ad1523e256277123609612c72;60.1996653;24.8836209;Huopalahdentie;2018-09-30T09:59:32.703000Z
234;12;{'uid': '098'};0;8b67b4057b47472655af37e1ed8c765f;60.2038803;24.8708833;Ulvilantie;2018-09-30T09:59:32.709000Z
235;3;{'uid': '651'};21;0a23727739a80a0c160254db209a4a1d;60.184596;24.744131;Suurpellonaukio;2018-09-30T09:59:32.710000Z
236;24;{'uid': '531'};0;f1a8d12c09a9435b2508fcd55539d1eb;60.177943;24.835352;Keilaranta;2018-09-30T09:59:32.711000Z
237;7;{'uid': '653'};7;668b3b970f35c1d52ef1b7f666f2332a;60.187052;24.742571;Lukutori;2018-09-30T09:59:32.712000Z
238;7;{'uid': '533'};12;574e06b0e59740f68cfe0d58e67685a6;60.180806;24.824747;Tekniikantie;2018-09-30T09:59:32.713000Z
239;5;{'uid': '537'};21;b5fcff6d538ac7545e134111bd888e97;60.185096;24.81422;Innopoli;2018-09-30T09:59:32.714000Z
240;26;{'uid': '547'};4;ed0b9fc73083cf19a833c446dd924914;60.188118;24.835033;Jämeräntaival;2018-09-30T09:59:32.720000Z
241;11;{'uid': '549'};1;9d11f65031e0a12fe14253827c84123f;60.187261;24.810199;Maarinranta;2018-09-30T09:59:32.721000Z
242;12;{'uid': '553'};4;f656856d6ac96da3cd79c94b98192591;60.186731;24.806152;Metsänneidonpolku;2018-09-30T09:59:32.726000Z
243;1;{'uid': '555'};22;0be8d4397223ea8948045cf9c6e9c143;60.184765;24.804022;Kalevalantie;2018-09-30T09:59:32.727000Z
244;6;{'uid': '571'};28;763ec506d05400551e15b4bda0d39554;60.177749;24.784654;Tapiolan urheilupuisto;2018-09-30T09:59:32.734000Z
245;14;{'uid': '573'};10;45fe20ace17bfc7af7208f24ab30a651;60.17465;24.779428;Urheilupuisto (M);2018-09-30T09:59:32.735000Z
246;15;{'uid': '575'};1;2e2f88479404f002020eed4df6b20d32;60.176107;24.769667;Tontunmäentie;2018-09-30T09:59:32.735000Z
247;11;{'uid': '577'};7;555a63d6ab9d9430e2bb56dfc5181bdf;60.180848;24.760606;Olarinluoma;2018-09-30T09:59:32.736000Z
248;11;{'uid': '579'};9;627f2ad39834b8f96af04070460d379e;60.171127;24.775913;Niittymaa;2018-09-30T09:59:32.737000Z
249;24;{'uid': '581'};8;eaa78b9ea9164a0e46532877a9568ee8;60.170758;24.763184;Niittykumpu (M);2018-09-30T09:59:32.739000Z
250;3;{'uid': '585'};18;6a633368f3caf3d22f57470204a52695;60.162396;24.775882;Haukilahdenaukio;2018-09-30T09:59:32.745000Z
251;15;{'uid': '104'};2;ad9e0a5db64eaef1d584fc06c209273e;60.2056785;24.8916817;Kriikunakuja;2018-09-30T09:59:32.748000Z
252;6;{'uid': '105'};10;fc1f6699a6f7f547f7aa68148c34b728;60.2028392;24.8934761;Tilkantori;2018-09-30T09:59:32.749000Z
253;11;{'uid': '106'};5;040440dad1795e9052e88b2e0088ea12;60.2034735;24.8989297;Korppaanmäentie;2018-09-30T09:59:32.753000Z
254;8;{'uid': '107'};8;a9743cfde075f5757333ab97c1ad33e8;60.2024393;24.9054609;Tenholantie;2018-09-30T09:59:32.754000Z
